[{"date311":"2/20/15","address":"301 W WISCONSIN ST","latitude":41.91655026,"longitude":-87.63635778},
{"date311":"2/20/15","address":"2500 W AUGUSTA BLVD","latitude":41.89935448,"longitude":-87.68939602},
{"date311":"2/20/15","address":"1037 N SPRINGFIELD AVE","latitude":41.89972582,"longitude":-87.72377607},
{"date311":"2/20/15","address":"3151 N MONTICELLO AVE","latitude":41.93831383,"longitude":-87.71856113},
{"date311":"2/20/15","address":"2181 N CLYBOURN AVE","latitude":41.92118874,"longitude":-87.66380758},
{"date311":"2/20/15","address":"9214 S LAFAYETTE AVE","latitude":41.7269285,"longitude":-87.62519194},
{"date311":"2/20/15","address":"7017 W SCHOOL ST","latitude":41.93988786,"longitude":-87.80194437},
{"date311":"2/20/15","address":"841 N WESTERN AVE","latitude":41.89680113,"longitude":-87.6868686},
{"date311":"2/20/15","address":"4218 N PULASKI RD","latitude":41.95763206,"longitude":-87.72773252},
{"date311":"2/20/15","address":"4708 N KEWANEE AVE","latitude":41.96569409,"longitude":-87.73273219},
{"date311":"2/20/15","address":"3474 S ARCHER AVE","latitude":41.83079181,"longitude":-87.6770135},
{"date311":"2/20/15","address":"4709 N KEWANEE AVE","latitude":41.96570718,"longitude":-87.73271589},
{"date311":"2/20/15","address":"5505 N SPAULDING AVE","latitude":41.9813175,"longitude":-87.71125265},
{"date311":"2/20/15","address":"9618 S NORMAL AVE","latitude":41.71921119,"longitude":-87.63588065},
{"date311":"2/20/15","address":"7610 S HONORE ST","latitude":41.75555637,"longitude":-87.66964144},
{"date311":"2/20/15","address":"7509 S ABERDEEN ST","latitude":41.75747817,"longitude":-87.65149332},
{"date311":"2/20/15","address":"4953 N HOYNE AVE","latitude":41.97151179,"longitude":-87.68169679},
{"date311":"2/20/15","address":"3206 S PRINCETON AVE","latitude":41.83625162,"longitude":-87.63405458},
{"date311":"2/20/15","address":"5835 S ROCKWELL ST","latitude":41.78766526,"longitude":-87.68875112},
{"date311":"2/20/15","address":"2907 N LINDER AVE","latitude":41.93325995,"longitude":-87.76385803},
{"date311":"2/20/15","address":"4736 N MARINE DR","latitude":41.9683209,"longitude":-87.64939882},
{"date311":"2/20/15","address":"2907 N LINDER AVE","latitude":41.93325995,"longitude":-87.76385803},
{"date311":"2/20/15","address":"600 W FULLERTON PKWY","latitude":41.92553219,"longitude":-87.64392739},
{"date311":"2/20/15","address":"3456 N PULASKI RD","latitude":41.94434074,"longitude":-87.72733823},
{"date311":"2/19/15","address":"2254 N AVERS AVE","latitude":41.92186747,"longitude":-87.72302795},
{"date311":"2/19/15","address":"2258 N HAMLIN AVE","latitude":41.92216965,"longitude":-87.72181312},
{"date311":"2/19/15","address":"3924 W FULLERTON AVE","latitude":41.92450262,"longitude":-87.72527503},
{"date311":"2/19/15","address":"3834 W FULLERTON AVE","latitude":41.92452781,"longitude":-87.72317475},
{"date311":"2/19/15","address":"2732 N WAYNE AVE","latitude":41.93126981,"longitude":-87.66230904},
{"date311":"2/19/15","address":"4200 W CULLERTON ST","latitude":41.85433871,"longitude":-87.72971103},
{"date311":"2/19/15","address":"2254 N SPRINGFIELD AVE","latitude":41.9218504,"longitude":-87.72424853},
{"date311":"2/19/15","address":"32 N RACINE AVE","latitude":41.88239242,"longitude":-87.65670944},
{"date311":"2/19/15","address":"2216 W OHIO ST","latitude":41.89218099,"longitude":-87.68223981},
{"date311":"2/19/15","address":"1229 W CORNELIA AVE","latitude":41.94530617,"longitude":-87.65983185},
{"date311":"2/19/15","address":"3806 W FULLERTON AVE","latitude":41.92453956,"longitude":-87.72213439},
{"date311":"2/19/15","address":"2411 W BRYN MAWR AVE","latitude":41.98316587,"longitude":-87.68990774},
{"date311":"2/19/15","address":"1011 W WOLFRAM ST","latitude":41.93354068,"longitude":-87.65416019},
{"date311":"2/19/15","address":"2309 W CHICAGO AVE","latitude":41.89578155,"longitude":-87.68461888},
{"date311":"2/19/15","address":"1039 N LARAMIE AVE","latitude":41.89930545,"longitude":-87.7557067},
{"date311":"2/19/15","address":"939 N LARAMIE AVE","latitude":41.89747384,"longitude":-87.75566268},
{"date311":"2/19/15","address":"839 N LARAMIE AVE","latitude":41.89565186,"longitude":-87.75561698},
{"date311":"2/19/15","address":"3845 W FULLERTON AVE","latitude":41.92452555,"longitude":-87.72336953},
{"date311":"2/19/15","address":"3917 W LAWRENCE AVE","latitude":41.9682594,"longitude":-87.7263102},
{"date311":"2/19/15","address":"3742 W AGATITE AVE","latitude":41.96193541,"longitude":-87.72155314},
{"date311":"2/19/15","address":"2229 S KEELER AVE","latitude":41.85086831,"longitude":-87.72959007},
{"date311":"2/19/15","address":"2505 W CORTEZ ST","latitude":41.90026552,"longitude":-87.68954508},
{"date311":"2/19/15","address":"2541 W CORTEZ ST","latitude":41.90025627,"longitude":-87.69044145},
{"date311":"2/19/15","address":"3455 W WALNUT ST","latitude":41.88545747,"longitude":-87.71249584},
{"date311":"2/19/15","address":"2631 W AUGUSTA BLVD","latitude":41.89932165,"longitude":-87.69263468},
{"date311":"2/19/15","address":"2523 W CORTEZ ST","latitude":41.9002609,"longitude":-87.68999327},
{"date311":"2/19/15","address":"6250 N RIDGEWAY AVE","latitude":41.99372025,"longitude":-87.7226834},
{"date311":"2/19/15","address":"5638 N KEDVALE AVE","latitude":41.98336645,"longitude":-87.73210205},
{"date311":"2/19/15","address":"4656 N SPRINGFIELD AVE","latitude":41.96565407,"longitude":-87.72551292},
{"date311":"2/19/15","address":"10035 S PEORIA ST","latitude":41.71170199,"longitude":-87.64538874},
{"date311":"2/19/15","address":"6319 N AVERS AVE","latitude":41.99582309,"longitude":-87.72519868},
{"date311":"2/19/15","address":"5735 N WASHTENAW AVE","latitude":41.98559627,"longitude":-87.69680814},
{"date311":"2/19/15","address":"4619 N HARDING AVE","latitude":41.96495839,"longitude":-87.72671529},
{"date311":"2/19/15","address":"4601 N SPRINGFIELD AVE","latitude":41.9646408,"longitude":-87.72548338},
{"date311":"2/19/15","address":"4615 N HARDING AVE","latitude":41.96488484,"longitude":-87.72671341},
{"date311":"2/19/15","address":"3855 W LAWRENCE AVE","latitude":41.96827614,"longitude":-87.72482423},
{"date311":"2/19/15","address":"2438 N CLARK ST","latitude":41.92664416,"longitude":-87.64111863},
{"date311":"2/19/15","address":"4830 N KEELER AVE","latitude":41.9687374,"longitude":-87.73298247},
{"date311":"2/19/15","address":"3827 W LAWRENCE AVE","latitude":41.96828214,"longitude":-87.72429981},
{"date311":"2/19/15","address":"6462 N NORTHWEST HWY","latitude":41.99820048,"longitude":-87.80882014},
{"date311":"2/19/15","address":"4735 N AVERS AVE","latitude":41.96752189,"longitude":-87.72434519},
{"date311":"2/19/15","address":"4739 N SPRINGFIELD AVE","latitude":41.96716363,"longitude":-87.72555998},
{"date311":"2/19/15","address":"4736 N HARDING AVE","latitude":41.96709394,"longitude":-87.72677808},
{"date311":"2/19/15","address":"4736 N SPRINGFIELD AVE","latitude":41.96710846,"longitude":-87.7255583},
{"date311":"2/19/15","address":"3825 W FULLERTON AVE","latitude":41.92453037,"longitude":-87.72293514},
{"date311":"2/19/15","address":"2321 N SPRINGFIELD AVE","latitude":41.92307178,"longitude":-87.72428542},
{"date311":"2/19/15","address":"3740 W LAWRENCE AVE","latitude":41.9683061,"longitude":-87.7221101},
{"date311":"2/19/15","address":"3822 W LAWRENCE AVE","latitude":41.9682843,"longitude":-87.72408541},
{"date311":"2/19/15","address":"3850 W LAWRENCE AVE","latitude":41.96827705,"longitude":-87.72473671},
{"date311":"2/19/15","address":"3916 W LAWRENCE AVE","latitude":41.96825972,"longitude":-87.72626828},
{"date311":"2/19/15","address":"2326 N HARDING AVE","latitude":41.92315023,"longitude":-87.72550877},
{"date311":"2/19/15","address":"3753 W GIDDINGS ST","latitude":41.96739313,"longitude":-87.72226372},
{"date311":"2/19/15","address":"3757 W LAWRENCE AVE","latitude":41.96830274,"longitude":-87.72240761},
{"date311":"2/19/15","address":"4652 N HARDING AVE","latitude":41.965566,"longitude":-87.72673264},
{"date311":"2/19/15","address":"2324 N SPRINGFIELD AVE","latitude":41.92312722,"longitude":-87.72428673},
{"date311":"2/19/15","address":"3729 N LEAVITT ST","latitude":41.94947631,"longitude":-87.68347992},
{"date311":"2/19/15","address":"4656 N AVERS AVE","latitude":41.96566623,"longitude":-87.72429105},
{"date311":"2/19/15","address":"4655 N AVERS AVE","latitude":41.96564784,"longitude":-87.72429049},
{"date311":"2/19/15","address":"2315 N AVERS AVE","latitude":41.92297604,"longitude":-87.72306038},
{"date311":"2/19/15","address":"3947 W FULLERTON AVE","latitude":41.92449564,"longitude":-87.72582372},
{"date311":"2/19/15","address":"3915 W FULLERTON AVE","latitude":41.92450726,"longitude":-87.72491927},
{"date311":"2/18/15","address":"9613 S EUCLID AVE","latitude":41.72038751,"longitude":-87.57652214},
{"date311":"2/18/15","address":"400 W ROSLYN PL","latitude":41.92810347,"longitude":-87.63920728},
{"date311":"2/18/15","address":"8236 S THROOP ST","latitude":41.74433816,"longitude":-87.65600104},
{"date311":"2/18/15","address":"4914 N MERRIMAC AVE","latitude":41.97057564,"longitude":-87.78434178},
{"date311":"2/18/15","address":"10853 S VINCENNES AVE","latitude":41.69655167,"longitude":-87.66022376},
{"date311":"2/18/15","address":"2523 N PARKSIDE AVE","latitude":41.92621074,"longitude":-87.76728503},
{"date311":"2/18/15","address":"2229 N SEMINARY AVE","latitude":41.9222319,"longitude":-87.65593261},
{"date311":"2/18/15","address":"4044 W CRYSTAL ST","latitude":41.90356379,"longitude":-87.72742164},
{"date311":"2/18/15","address":"4942 W DEMING PL","latitude":41.9269583,"longitude":-87.74991944},
{"date311":"2/18/15","address":"6751 S THROOP ST","latitude":41.77136041,"longitude":-87.65671275},
{"date311":"2/18/15","address":"500 W FULLERTON PKWY","latitude":41.92556917,"longitude":-87.64150198},
{"date311":"2/18/15","address":"2950 N LAVERGNE AVE","latitude":41.93446935,"longitude":-87.75162312},
{"date311":"2/18/15","address":"3552 N NEWCASTLE AVE","latitude":41.94458459,"longitude":-87.79716664},
{"date311":"2/18/15","address":"636 S DAMEN AVE","latitude":41.87357508,"longitude":-87.67644325},
{"date311":"2/18/15","address":"4459 W 55TH ST","latitude":41.79310482,"longitude":-87.73468421},
{"date311":"2/17/15","address":"3428 N AUSTIN AVE","latitude":41.94299431,"longitude":-87.77639386},
{"date311":"2/17/15","address":"1719 S WABASH AVE","latitude":41.85878853,"longitude":-87.62563239},
{"date311":"2/17/15","address":"2436 N CLARK ST","latitude":41.92658825,"longitude":-87.64108469},
{"date311":"2/17/15","address":"2905 N LINDER AVE","latitude":41.93322317,"longitude":-87.76385652},
{"date311":"2/17/15","address":"226 S CICERO AVE","latitude":41.87751061,"longitude":-87.74517122},
{"date311":"2/17/15","address":"4606 N KASSON AVE","latitude":41.96442897,"longitude":-87.73298602},
{"date311":"2/17/15","address":"4957 W MONROE ST","latitude":41.87946066,"longitude":-87.74856629},
{"date311":"2/17/15","address":"1135 S SACRAMENTO BLVD","latitude":41.86763498,"longitude":-87.70082286},
{"date311":"2/17/15","address":"100 N HAMLIN BLVD","latitude":41.88189686,"longitude":-87.72082023},
{"date311":"2/17/15","address":"4944 N ST LOUIS AVE","latitude":41.970915,"longitude":-87.71587636},
{"date311":"2/17/15","address":"5814 S SANGAMON ST","latitude":41.78834412,"longitude":-87.64865048},
{"date311":"2/17/15","address":"7349 S DANTE AVE","latitude":41.76147931,"longitude":-87.58965675},
{"date311":"2/17/15","address":"11033 S CAMPBELL AVE","latitude":41.69266059,"longitude":-87.68367562},
{"date311":"2/17/15","address":"6423 S FRANCISCO AVE","latitude":41.7768329,"longitude":-87.69577633},
{"date311":"2/17/15","address":"7300 S GREEN ST","latitude":41.76154368,"longitude":-87.64553094},
{"date311":"2/17/15","address":"1027 W 104TH ST","latitude":41.70504777,"longitude":-87.64830461},
{"date311":"2/17/15","address":"3207 N LAWNDALE AVE","latitude":41.93931461,"longitude":-87.71985147},
{"date311":"2/17/15","address":"3300 N HAMLIN AVE","latitude":41.94097607,"longitude":-87.72234738},
{"date311":"2/17/15","address":"2900 W ROOSEVELT RD","latitude":41.86648153,"longitude":-87.69834707},
{"date311":"2/17/15","address":"2653 W MAYPOLE AVE","latitude":41.88368044,"longitude":-87.69280799},
{"date311":"2/17/15","address":"4728 N WOLCOTT AVE","latitude":41.96747998,"longitude":-87.67616868},
{"date311":"2/17/15","address":"4409 S CHRISTIANA AVE","latitude":41.81343105,"longitude":-87.70783645},
{"date311":"2/17/15","address":"2940 N AVERS AVE","latitude":41.93439197,"longitude":-87.72337281},
{"date311":"2/17/15","address":"550 W FULLERTON PKWY","latitude":41.92554623,"longitude":-87.64300845},
{"date311":"2/17/15","address":"3719 N LAVERGNE AVE","latitude":41.94848671,"longitude":-87.75209303},
{"date311":"2/16/15","address":"4031 N MEADE AVE","latitude":41.95361043,"longitude":-87.77924171},
{"date311":"2/16/15","address":"6326 N SPRINGFIELD AVE","latitude":41.99594262,"longitude":-87.72635071},
{"date311":"2/16/15","address":"5224 N CHRISTIANA AVE","latitude":41.97614984,"longitude":-87.71234279},
{"date311":"2/16/15","address":"7245 W BELMONT AVE","latitude":41.93798971,"longitude":-87.80819692},
{"date311":"2/16/15","address":"4615 N LINCOLN AVE","latitude":41.96532011,"longitude":-87.68639133},
{"date311":"2/16/15","address":"8302 W FOREST PRESERVE AVE","latitude":41.9410886,"longitude":-87.83385033},
{"date311":"2/16/15","address":"4029 N MEADE AVE","latitude":41.95357201,"longitude":-87.77924021},
{"date311":"2/16/15","address":"308 N UNION AVE","latitude":41.88708702,"longitude":-87.64571652},
{"date311":"2/15/15","address":"1450 W ERIE ST","latitude":41.89339039,"longitude":-87.66413441},
{"date311":"2/15/15","address":"6553 N KEDZIE AVE","latitude":42.00017659,"longitude":-87.70936568},
{"date311":"2/14/15","address":"2919 W BELDEN AVE","latitude":41.92327158,"longitude":-87.70048901},
{"date311":"2/14/15","address":"2000 W CONGRESS PKWY","latitude":41.87502144,"longitude":-87.67648715},
{"date311":"2/14/15","address":"4602 N KIONA AVE","latitude":41.96462104,"longitude":-87.7349369},
{"date311":"2/13/15","address":"5130 N LOWELL AVE","latitude":41.97416877,"longitude":-87.73683144},
{"date311":"2/13/15","address":"2400 W MADISON ST","latitude":41.88116173,"longitude":-87.68643116},
{"date311":"2/13/15","address":"4219 W LELAND AVE","latitude":41.96707522,"longitude":-87.73365408},
{"date311":"2/13/15","address":"6614 W BELMONT AVE","latitude":41.93823449,"longitude":-87.79101474},
{"date311":"2/13/15","address":"3101 S SHIELDS AVE","latitude":41.83817003,"longitude":-87.63531743},
{"date311":"2/13/15","address":"2628 N MILWAUKEE AVE","latitude":41.929525,"longitude":-87.7081538},
{"date311":"2/13/15","address":"4600 N HARDING AVE","latitude":41.96460873,"longitude":-87.72670537},
{"date311":"2/13/15","address":"4738 N KELSO AVE","latitude":41.96644837,"longitude":-87.73411107},
{"date311":"2/13/15","address":"2919 N DAWSON AVE","latitude":41.93448403,"longitude":-87.71185225},
{"date311":"2/13/15","address":"4600 N AVERS AVE","latitude":41.96463528,"longitude":-87.72426046},
{"date311":"2/13/15","address":"4600 N HAMLIN AVE","latitude":41.96464983,"longitude":-87.72303458},
{"date311":"2/13/15","address":"4416 N HARDING AVE","latitude":41.96126465,"longitude":-87.72661302},
{"date311":"2/13/15","address":"7201 W CLARENCE AVE","latitude":41.9944631,"longitude":-87.80686379},
{"date311":"2/13/15","address":"4254 N MONTICELLO AVE","latitude":41.95841239,"longitude":-87.71917733},
{"date311":"2/13/15","address":"5547 N MAJOR AVE","latitude":41.98197153,"longitude":-87.77078398},
{"date311":"2/13/15","address":"2898 N MILWAUKEE AVE","latitude":41.93387175,"longitude":-87.71527829},
{"date311":"2/13/15","address":"2909 N MILWAUKEE AVE","latitude":41.9342064,"longitude":-87.715828},
{"date311":"2/13/15","address":"2930 N GRESHAM AVE","latitude":41.93489358,"longitude":-87.71572513},
{"date311":"2/13/15","address":"2652 N SPAULDING AVE","latitude":41.9292954,"longitude":-87.71088626},
{"date311":"2/13/15","address":"2638 N SAWYER AVE","latitude":41.92908475,"longitude":-87.70938438},
{"date311":"2/13/15","address":"2633 N SAWYER AVE","latitude":41.92898789,"longitude":-87.70938533},
{"date311":"2/13/15","address":"2653 N MILWAUKEE AVE","latitude":41.9298174,"longitude":-87.70863236},
{"date311":"2/13/15","address":"2940 N WISNER AVE","latitude":41.93416948,"longitude":-87.71359542},
{"date311":"2/13/15","address":"2630 N SPAULDING AVE","latitude":41.92888743,"longitude":-87.71087567},
{"date311":"2/13/15","address":"4614 N HARDING AVE","latitude":41.96486645,"longitude":-87.72671285},
{"date311":"2/13/15","address":"4600 N SPRINGFIELD AVE","latitude":41.96462242,"longitude":-87.72548282},
{"date311":"2/12/15","address":"2535 W WARREN BLVD","latitude":41.88205872,"longitude":-87.68947062},
{"date311":"2/12/15","address":"4138 N CLAREMONT AVE","latitude":41.95656153,"longitude":-87.68732931},
{"date311":"2/12/15","address":"4214 N HERMITAGE AVE","latitude":41.95815902,"longitude":-87.67231185},
{"date311":"2/12/15","address":"2500 N NEW ENGLAND AVE","latitude":41.92539695,"longitude":-87.79773441},
{"date311":"2/12/15","address":"2653 W WASHINGTON BLVD","latitude":41.88293518,"longitude":-87.69277324},
{"date311":"2/11/15","address":"5043 N DAMEN AVE","latitude":41.97352298,"longitude":-87.67932789},
{"date311":"2/11/15","address":"542 W ARLINGTON PL","latitude":41.92688966,"longitude":-87.64246258},
{"date311":"2/10/15","address":"164 W EUGENIE ST","latitude":41.9128993,"longitude":-87.63381793},
{"date311":"2/10/15","address":"752 W WILLOW ST","latitude":41.91384106,"longitude":-87.6475175},
{"date311":"2/10/15","address":"2326 N COMMONWEALTH AVE","latitude":41.9242744,"longitude":-87.63806785},
{"date311":"2/10/15","address":"2015 N CLIFTON AVE","latitude":41.91832759,"longitude":-87.65702004},
{"date311":"2/10/15","address":"2058 W RANDOLPH ST","latitude":41.88458323,"longitude":-87.67840086},
{"date311":"2/9/15","address":"224 S ASHLAND AVE","latitude":41.87858735,"longitude":-87.66673668},
{"date311":"2/9/15","address":"4313 N LINCOLN AVE","latitude":41.95991056,"longitude":-87.682796},
{"date311":"2/9/15","address":"2907 N HOYNE AVE","latitude":41.93420963,"longitude":-87.68063126},
{"date311":"2/8/15","address":"2626 N WILTON AVE","latitude":41.92950431,"longitude":-87.65252932},
{"date311":"2/8/15","address":"7348 W BELMONT AVE","latitude":41.93798563,"longitude":-87.81102215},
{"date311":"2/8/15","address":"8812 S MICHIGAN AVE","latitude":41.73435546,"longitude":-87.62093631},
{"date311":"2/8/15","address":"6956 W NORTH AVE","latitude":41.90896503,"longitude":-87.79944771},
{"date311":"2/8/15","address":"5031 S SHIELDS AVE","latitude":41.80304142,"longitude":-87.63439127},
{"date311":"2/7/15","address":"3138 W FILLMORE ST","latitude":41.86823623,"longitude":-87.70464494},
{"date311":"2/7/15","address":"3628 W 83RD ST","latitude":41.74232018,"longitude":-87.71300589},
{"date311":"2/6/15","address":"3240 N KOSTNER AVE","latitude":41.94000275,"longitude":-87.7370652},
{"date311":"2/6/15","address":"2835 N RACINE AVE","latitude":41.93353317,"longitude":-87.65874425},
{"date311":"2/6/15","address":"2168 W EASTWOOD AVE","latitude":41.96595059,"longitude":-87.68308193},
{"date311":"2/6/15","address":"7508 S MERRILL AVE","latitude":41.75877274,"longitude":-87.57246018},
{"date311":"2/6/15","address":"2059 N DAYTON ST","latitude":41.91924283,"longitude":-87.64976388},
{"date311":"2/6/15","address":"3346 N SPRINGFIELD AVE","latitude":41.9417917,"longitude":-87.72481792},
{"date311":"2/6/15","address":"7349 S VINCENNES AVE","latitude":41.76088629,"longitude":-87.63007914},
{"date311":"2/6/15","address":"6132 W ROSCOE ST","latitude":41.9420728,"longitude":-87.77957562},
{"date311":"2/6/15","address":"1153 W MONROE ST","latitude":41.88034749,"longitude":-87.65596559},
{"date311":"2/6/15","address":"7728 W PETERSON AVE","latitude":41.98871454,"longitude":-87.82033842},
{"date311":"2/6/15","address":"4627 N SPRINGFIELD AVE","latitude":41.96511974,"longitude":-87.72549758},
{"date311":"2/6/15","address":"432 W 76TH ST","latitude":41.75623501,"longitude":-87.63565603},
{"date311":"2/5/15","address":"3328 W CHICAGO AVE","latitude":41.89552055,"longitude":-87.70990669},
{"date311":"2/5/15","address":"749 S CALIFORNIA AVE","latitude":41.87174143,"longitude":-87.69604301},
{"date311":"2/5/15","address":"2255 E 100TH ST","latitude":41.7134658,"longitude":-87.56900687},
{"date311":"2/5/15","address":"2652 N HALSTED ST","latitude":41.9303783,"longitude":-87.64893209},
{"date311":"2/3/15","address":"2712 W FLOURNOY ST","latitude":41.87290341,"longitude":-87.69392589},
{"date311":"2/3/15","address":"7531 S MAY ST","latitude":41.75709818,"longitude":-87.65269826},
{"date311":"2/2/15","address":"6931 S ARTESIAN AVE","latitude":41.76774594,"longitude":-87.68454801},
{"date311":"2/2/15","address":"6940 S CAMPBELL AVE","latitude":41.76756209,"longitude":-87.6857661},
{"date311":"2/1/15","address":"5712 W HIGGINS AVE","latitude":41.971337,"longitude":-87.77132245},
{"date311":"1/31/15","address":"520 E 80TH ST","latitude":41.74934635,"longitude":-87.61167106},
{"date311":"1/31/15","address":"4207 N KEYSTONE AVE","latitude":41.95741251,"longitude":-87.72932602},
{"date311":"1/30/15","address":"4717 N KEWANEE AVE","latitude":41.96581078,"longitude":-87.73258585},
{"date311":"1/30/15","address":"5339 S ABERDEEN ST","latitude":41.79712684,"longitude":-87.6525257},
{"date311":"1/30/15","address":"1134 W SCHUBERT AVE","latitude":41.9307558,"longitude":-87.65704062},
{"date311":"1/30/15","address":"2729 N SHEFFIELD AVE","latitude":41.93135565,"longitude":-87.65381521},
{"date311":"1/29/15","address":"3705 W IRVING PARK RD","latitude":41.95375116,"longitude":-87.72047025},
{"date311":"1/29/15","address":"5747 W HIGGINS AVE","latitude":41.97158196,"longitude":-87.77224389},
{"date311":"1/29/15","address":"5916 S CAMPBELL AVE","latitude":41.78623006,"longitude":-87.68627239},
{"date311":"1/29/15","address":"4310 S EMERALD AVE","latitude":41.81592422,"longitude":-87.64450901},
{"date311":"1/29/15","address":"5006 S ADA ST","latitude":41.8031112,"longitude":-87.65874895},
{"date311":"1/28/15","address":"2644 W 23RD ST","latitude":41.85013108,"longitude":-87.69158189},
{"date311":"1/28/15","address":"7940 S PAXTON AVE","latitude":41.75093447,"longitude":-87.57109442},
{"date311":"1/27/15","address":"11112 S AVENUE M","latitude":41.69344546,"longitude":-87.5376957},
{"date311":"1/27/15","address":"4925 N MARMORA AVE","latitude":41.97085008,"longitude":-87.77585171},
{"date311":"1/26/15","address":"1010 W DIVERSEY PKWY","latitude":41.93263113,"longitude":-87.65426037},
{"date311":"1/26/15","address":"2525 N LINCOLN AVE","latitude":41.92771163,"longitude":-87.6519311},
{"date311":"1/26/15","address":"5531 W EDMUNDS ST","latitude":41.97102695,"longitude":-87.76605232},
{"date311":"1/26/15","address":"1701 E 84TH ST","latitude":41.74241927,"longitude":-87.58284805},
{"date311":"1/23/15","address":"4108 W MONTROSE AVE","latitude":41.96092361,"longitude":-87.72995822},
{"date311":"1/23/15","address":"5738 W LAWRENCE AVE","latitude":41.96773671,"longitude":-87.7710126},
{"date311":"1/22/15","address":"3053 S HOMAN AVE","latitude":41.8379936,"longitude":-87.709735},
{"date311":"1/22/15","address":"5734 W GUNNISON ST","latitude":41.96863912,"longitude":-87.77110181},
{"date311":"1/21/15","address":"4614 N LINDER AVE","latitude":41.96471773,"longitude":-87.76492921}]
